City_ID,City,Lat,Lng,Max Temp,Humidity,Cloudiness,Wind Speed,Country,Date
0,punta arenas,-53.15,-70.9167,283.21,62,75,12.35,CL,1728769553
1,talnakh,69.4865,88.3972,267.17,94,100,4.2,RU,1728769316
2,iqaluit,63.7506,-68.5145,277.0,80,75,4.63,CA,1728769555
3,papatowai,-46.5619,169.4708,279.72,82,99,3.2,NZ,1728769556
4,edinburgh of the seven seas,-37.0676,-12.3116,286.23,76,57,4.68,SH,1728769558
5,waitangi,-43.9535,-176.5597,284.72,99,100,4.47,NZ,1728769559
6,broome,42.2506,-75.833,287.4,59,72,1.95,US,1728769560
7,san agustin de valle fertil,-30.6335,-67.4682,295.17,49,96,3.37,AR,1728769562
8,port-aux-francais,-49.35,70.2167,276.26,83,97,10.07,TF,1728769563
9,viedma,-40.8135,-62.9967,290.08,20,41,3.29,AR,1728769542
10,newman,37.3138,-121.0208,300.39,46,0,4.02,US,1728769565
11,mazagao,-0.115,-51.2894,302.25,61,65,4.86,BR,1728769566
12,ilulissat,69.2167,-51.1,271.16,50,0,1.03,GL,1728769567
13,kaiapoi,-43.3783,172.6401,283.76,92,75,3.6,NZ,1728769569
14,adamstown,-25.066,-130.1015,294.33,81,98,4.85,PN,1728769570
15,kodiak,57.79,-152.4072,278.88,87,100,3.6,US,1728769571
16,longyearbyen,78.2186,15.6401,277.06,75,75,6.17,SJ,1728769572
17,dadukou,26.5479,101.7054,291.74,97,76,0.27,CN,1728769573
18,windsor,42.3001,-83.0165,291.2,63,0,4.12,CA,1728769325
19,keflavik,64.0049,-22.5624,273.39,47,0,3.6,IS,1728769575
20,puerto ayacucho,5.6639,-67.6236,297.62,96,63,6.17,VE,1728769576
21,sos'va,59.1766,61.8558,269.18,77,30,2.34,RU,1728769577
22,suwayr,30.1171,40.3893,298.57,20,0,2.11,SA,1728769578
23,guiyang,26.5833,106.7167,290.42,94,100,2.0,CN,1728769434
24,smithers,54.7804,-127.1743,286.33,54,75,4.12,CA,1728769581
25,crane,31.3974,-102.3501,307.4,10,0,5.3,US,1728769582
26,urangan,-25.3,152.9,294.55,66,97,6.48,AU,1728769583
27,caleta de carquin,-11.0925,-77.6267,292.22,79,76,4.22,PE,1728769584
28,ayorou,14.7308,0.9174,307.55,21,100,2.77,NE,1728769586
29,port mathurin,-19.6833,63.4167,295.54,71,100,9.74,MU,1728769587
30,kalispell,48.1958,-114.3129,292.87,36,0,2.68,US,1728769588
31,hermanus,-34.4187,19.2345,285.82,86,0,3.02,ZA,1728769589
32,udachny,66.4167,112.4,252.98,99,91,1.63,RU,1728769590
33,margaret river,-33.95,115.0667,282.89,91,10,3.36,AU,1728769592
34,blackmans bay,-43.0167,147.3167,284.67,63,59,0.45,AU,1728769593
35,namibe,-15.1961,12.1522,294.22,81,32,1.69,AO,1728769594
36,tonekabon,36.8163,50.8738,294.12,90,86,0.45,IR,1728769595
37,yellowknife,62.456,-114.3525,280.05,90,23,2.24,CA,1728769596
38,guerrero negro,27.9769,-114.0611,299.88,49,0,6.06,MX,1728769597
39,marsa alam,25.0757,34.8918,300.28,46,0,0.97,EG,1728769598
40,hamilton,39.1834,-84.5333,298.92,50,0,3.6,US,1728769459
41,olinala,17.8333,-98.85,296.95,57,100,1.34,MX,1728769600
42,thompson,55.7435,-97.8558,283.24,71,75,1.54,CA,1728769602
43,beloyarskiy,63.7119,66.6722,274.01,55,100,4.99,RU,1728769603
44,isafjordur,66.0755,-23.124,271.06,78,40,1.85,IS,1728769604
45,ipameri,-17.7219,-48.1597,294.79,89,91,2.4,BR,1728769605
46,kosciusko,33.0576,-89.5876,300.81,36,0,1.51,US,1728769606
47,stornoway,58.2093,-6.3865,277.13,84,40,6.17,GB,1728769607
48,lumut,4.2323,100.6298,297.16,94,20,0.0,MY,1728769608
49,at taraf,25.3628,49.725,302.45,69,0,1.87,SA,1728769609
50,chernyshevskiy,63.0128,112.4714,262.63,93,71,1.32,RU,1728769610
51,belel,7.05,14.4333,289.16,92,67,0.68,CM,1728769611
52,ushuaia,-54.8,-68.3,281.96,49,40,6.69,AR,1728769388
53,grytviken,-54.2811,-36.5092,273.78,85,100,2.28,GS,1728769614
54,stanley,54.868,-1.6985,278.86,83,20,5.66,GB,1728769612
55,arteche,12.2645,125.4048,298.79,90,97,0.68,PH,1728769616
56,yokadouma,3.5167,15.05,294.13,99,98,0.5,CM,1728769617
57,bethel,41.3712,-73.414,295.2,18,0,3.09,US,1728769618
58,jamestown,42.097,-79.2353,289.95,51,0,4.12,US,1728769619
59,kingston,17.997,-76.7936,304.91,74,20,7.72,JM,1728769478
60,puerto natales,-51.7236,-72.4875,284.4,54,75,10.8,CL,1728769621
61,colonia,50.9333,6.95,284.89,91,40,2.57,DE,1728769622
62,laguna,38.421,-121.4238,300.4,52,0,2.06,US,1728769623
63,dunda,-8.1167,34.25,293.18,57,8,1.17,TZ,1728769624
64,la passe,45.5549,-0.8967,290.01,87,40,0.13,FR,1728769626
65,perelyub,51.8667,50.3667,274.57,60,0,3.83,RU,1728769627
66,chokwe,-24.5333,32.9833,296.47,67,0,2.33,MZ,1728769628
67,usogorsk,63.4106,48.6872,275.83,59,100,4.98,RU,1728769629
68,tralee,52.2704,-9.7026,278.69,81,100,1.61,IE,1728769630
69,tejen,37.3834,60.5054,292.28,35,97,2.6,TM,1728769631
70,ola,59.5833,151.2833,274.25,95,100,4.2,RU,1728769632
71,invercargill,-46.4,168.35,280.94,90,86,0.45,NZ,1728769462
72,buka,40.8108,69.1986,291.11,32,100,1.15,UZ,1728769634
73,hadibu,12.65,54.0333,299.53,77,99,0.77,YE,1728769635
74,talcahuano,-36.7167,-73.1167,287.97,63,0,8.23,CL,1728769636
75,anjar,23.1333,70.0167,299.28,70,100,2.52,IN,1728769638
76,constantia,44.1833,28.65,284.65,70,79,7.18,RO,1728769455
77,hawaiian paradise park,19.5933,-154.9731,301.41,72,40,3.09,US,1728769640
78,solnechnyy,50.7214,136.6319,274.11,56,0,1.75,RU,1728769641
79,ketchikan,55.3422,-131.6461,286.67,82,100,10.8,US,1728769355
80,jiangzi,28.95,89.6333,273.69,69,0,1.96,CN,1728769644
81,bilibino,68.0546,166.4372,260.65,82,100,1.28,RU,1728769645
82,okhotsk,59.3833,143.3,274.92,99,100,3.82,RU,1728769531
83,alofi,-19.0595,-169.9187,301.09,65,20,5.14,NU,1728769387
84,barentu,15.1139,37.5928,299.09,33,0,2.13,ER,1728769649
85,lihue,21.9789,-159.3672,300.92,69,0,4.12,US,1728769556
86,whitehorse,60.7161,-135.0538,279.87,86,100,9.77,CA,1728769651
87,port elizabeth,-33.918,25.5701,291.1,96,14,2.68,ZA,1728769566
88,lesnoy,57.6198,63.0784,269.64,73,40,0.99,RU,1728769653
89,rio preto da eva,-2.6994,-59.6997,309.69,23,99,2.74,BR,1728769654
90,yerofey pavlovich,53.9667,121.9667,270.76,52,98,1.77,RU,1728769655
91,happy valley-goose bay,53.3168,-60.3315,279.32,87,100,4.63,CA,1728769656
92,mount pearl,47.5166,-52.7813,285.55,96,100,5.36,CA,1728769657
93,karratha,-20.7377,116.8463,300.9,23,33,8.21,AU,1728769658
94,tual,-5.6667,132.75,300.72,80,100,6.77,ID,1728769659
95,puerto armuelles,8.2833,-82.8667,298.76,87,97,3.13,PA,1728769661
96,sultanah,24.4926,39.5857,305.4,12,0,3.09,SA,1728769662
97,fort mcmurray,56.7268,-111.381,284.92,37,100,2.06,CA,1728769520
98,avarua,-21.2078,-159.775,299.18,69,40,7.72,CK,1728769664
99,aykhal,66.0,111.5,253.44,100,69,2.0,RU,1728769665
100,tinghir,31.5157,-5.5343,295.2,26,85,4.77,MA,1728769666
101,cabo san lucas,22.8909,-109.9124,301.89,66,0,4.58,MX,1728769668
102,tvoroyri,61.5556,-6.8111,278.06,62,21,7.99,FO,1728769669
103,chibuto,-24.6867,33.5306,293.85,78,0,2.3,MZ,1728769670
104,faya-largeau,17.9257,19.1043,303.32,12,0,5.68,TD,1728769672
105,praia da vitoria,38.7333,-27.0667,295.29,78,40,5.12,PT,1728769673
106,macau,22.2006,113.5461,299.0,83,40,3.09,MO,1728769674
107,schuyler,42.4167,-76.883,289.14,57,29,1.34,US,1728769675
108,tambopata,-12.7333,-69.1833,300.09,69,75,2.06,PE,1728769676
109,xinyuan,37.3,99.0,273.11,36,0,2.43,CN,1728769677
110,college,64.8569,-147.8028,280.41,55,100,8.75,US,1728769678
111,nabire,-3.3667,135.4833,298.47,92,100,1.48,ID,1728769494
112,sayat,38.7839,63.8803,289.97,36,89,3.07,TM,1728769680
113,seka,17.9285,103.9552,296.44,86,12,1.08,TH,1728769681
114,ust-nera,64.5667,143.2,269.22,96,100,0.91,RU,1728769682
115,kerikeri,-35.2268,173.9474,291.43,65,85,4.02,NZ,1728769684
116,wailua homesteads,22.0669,-159.378,300.59,76,0,4.12,US,1728769389
117,tosontsengel,48.7567,98.2839,275.84,95,100,3.74,MN,1728769686
118,west island,-12.1568,96.8225,299.14,89,20,4.63,CC,1728769687
119,vilyuchinsk,52.9306,158.4028,281.3,92,100,2.75,RU,1728769688
120,fernley,39.608,-119.2518,299.03,16,0,2.68,US,1728769689
121,utrik,11.2278,169.8474,301.47,76,100,6.47,MH,1728769690
122,bomdila,27.25,92.4,280.49,99,98,0.3,IN,1728769691
123,freetown,8.484,-13.2299,298.99,83,75,4.63,SL,1728769692
124,usoke,-5.1667,32.35,297.1,34,35,5.62,TZ,1728769693
125,cartagena del chaira,1.3349,-74.8429,296.63,97,79,2.71,CO,1728769695
126,spring creek,40.7266,-115.5859,298.6,13,75,3.58,US,1728769696
127,petropavlovsk-kamchatsky,53.0452,158.6483,280.48,57,75,4.0,RU,1728769697
128,albany,42.6001,-73.9662,288.96,44,54,0.89,US,1728769460
129,bowen,-20.0167,148.2333,295.37,69,96,3.83,AU,1728769699
130,tazacorte,28.629,-17.9293,296.69,90,20,2.06,ES,1728769700
131,laghouat,33.8,2.8651,297.81,43,42,5.39,DZ,1728769701
132,puerto ayora,-0.7393,-90.3518,295.12,89,93,1.79,EC,1728769702
133,kodinsk,58.6881,99.1844,265.65,85,12,1.58,RU,1728769703
134,kapuskasing,49.4169,-82.4331,281.2,53,40,5.14,CA,1728769704
135,stantsiya novyy afon,43.0806,40.8383,293.95,59,100,2.78,GE,1728769705
136,mil'kovo,55.6078,37.7956,281.12,61,100,6.3,RU,1728769707
137,sinabang,2.4803,96.3801,298.11,90,100,3.09,ID,1728769708
138,lebu,-37.6167,-73.65,284.46,69,0,7.08,CL,1728769709
139,tazovsky,67.4667,78.7,271.33,96,100,7.34,RU,1728769710
140,tibro,58.4245,14.1616,282.0,82,100,0.89,SE,1728769711
141,tofol,5.3248,163.0078,302.25,72,100,5.64,FM,1728769506
142,chadan,51.2833,91.5833,278.62,83,100,1.21,RU,1728769713
143,touros,-5.1989,-35.4608,298.22,83,24,5.74,BR,1728769714
144,buon ma thuot,12.6667,108.05,294.96,92,53,1.84,VN,1728769715
145,haiku-pauwela,20.9219,-156.3051,302.16,65,20,14.31,US,1728769717
146,laizhou,37.1717,119.9214,289.2,76,100,3.19,CN,1728769718
147,port alfred,-33.5906,26.891,290.47,96,53,0.89,ZA,1728769719
148,ribeira grande,38.5167,-28.7,295.8,94,75,10.29,PT,1728769720
149,palmer,42.1584,-72.3287,292.9,18,0,7.2,US,1728769721
150,peniche,39.3558,-9.3811,293.82,81,0,3.51,PT,1728769722
151,mount gambier,-37.8333,140.7667,286.33,49,100,4.39,AU,1728769723
152,paulden,34.8856,-112.4682,303.87,14,97,2.24,US,1728769724
153,tondon,10.3667,-13.35,296.78,95,100,0.61,GN,1728769725
154,izluchinsk,60.9794,76.9242,271.16,80,83,3.59,RU,1728769728
155,isangel,-19.55,169.2667,298.21,73,75,2.57,VU,1728769729
156,puerto deseado,-47.7503,-65.8938,282.93,56,4,8.09,AR,1728769730
157,cannonvale,-20.2833,148.7,296.81,68,92,7.07,AU,1728769731
158,olonkinbyen,70.9221,-8.7187,270.94,93,100,15.78,SJ,1728769732
159,tanjung selor,2.8372,117.3642,296.52,98,80,0.9,ID,1728769733
160,chimbote,-9.0853,-78.5783,291.69,82,70,3.92,PE,1728769734
161,afaahiti,-17.75,-149.2833,296.06,79,81,7.17,PF,1728769735
162,egilsstadir,65.2653,-14.3948,268.1,68,0,4.12,IS,1728769736
163,gadzhiyevo,69.2551,33.3362,276.48,79,4,10.18,RU,1728769737
164,mccook,40.2019,-100.6257,301.18,21,0,6.69,US,1728769739
165,pitimbu,-7.4706,-34.8086,298.13,82,55,4.03,BR,1728769740
166,lyozna,55.0249,30.7956,278.47,90,87,3.89,BY,1728769741
167,port lincoln,-34.7333,135.8667,290.05,70,100,0.86,AU,1728769742
168,chipinge,-20.1883,32.6236,290.28,69,94,2.19,ZW,1728769743
169,quellon,-43.1167,-73.6167,283.1,91,97,1.86,CL,1728769644
170,les trois-ilets,14.539,-61.0361,303.1,70,20,3.6,MQ,1728769745
171,al bardiyah,31.7561,25.0865,297.1,81,12,3.88,LY,1728769746
172,el galpon,-25.3807,-64.6526,299.59,45,35,3.52,AR,1728769747
173,modra,48.334,17.3071,284.03,93,20,1.54,SK,1728769748
174,rexburg,43.826,-111.7897,297.14,19,0,0.0,US,1728769750
175,bredasdorp,-34.5322,20.0403,285.5,93,0,1.02,ZA,1728769751
176,polyarnyy,69.1989,33.4478,276.56,79,5,9.91,RU,1728769752
177,codrington,-38.2667,141.9667,288.04,49,100,5.63,AU,1728769753
178,pathein,16.7833,94.7333,298.04,89,68,1.04,MM,1728769754
179,aasiaat,68.7098,-52.8699,271.62,72,44,5.43,GL,1728769755
180,mehran,33.1222,46.1646,300.43,15,6,2.15,IR,1728769756
181,tari,-11.1105,14.3559,292.46,83,1,1.11,AO,1728769757
182,coahuayana de hidalgo,18.7,-103.6583,303.19,70,48,2.55,MX,1728769758
183,inderbor,48.55,51.7833,275.73,51,0,6.03,KZ,1728769759
184,nova sintra,14.8667,-24.7167,300.66,76,100,2.46,CV,1728769760
185,filadelfia,39.9523,-75.1638,297.62,33,40,4.12,US,1728769560
186,tiksi,71.6872,128.8694,260.45,92,100,3.75,RU,1728769763
187,minot,48.2325,-101.2963,291.27,36,0,11.32,US,1728769617
188,east london,-33.0153,27.9116,291.72,91,5,0.57,ZA,1728769501
189,hithadhoo,-0.6,73.0833,300.9,76,94,6.56,MV,1728769766
190,albert lea,43.648,-93.3683,291.2,55,40,4.63,US,1728769767
191,huedin,46.8667,23.05,280.33,82,0,2.27,RO,1728769768
192,luanco,43.6152,-5.7934,291.25,93,4,3.58,ES,1728769769
193,okola,4.0167,11.3833,293.11,100,100,0.96,CM,1728769770
194,hilo,19.7297,-155.09,301.53,74,40,3.09,US,1728769771
195,nuuk,64.1835,-51.7216,278.49,48,0,2.06,GL,1728769773
196,hobyo,5.3505,48.5268,298.89,87,10,7.92,SO,1728769774
197,lompoc,34.6391,-120.4579,294.0,74,75,7.72,US,1728769775
198,adrar,20.5022,-10.0711,308.56,19,100,8.75,MR,1728769776
199,itoman,26.1247,127.6694,299.31,78,20,1.54,JP,1728769777
200,ulsteinvik,62.3432,5.8487,282.22,70,100,4.31,NO,1728769778
201,ain sukhna,29.6002,32.3167,297.32,73,9,1.86,EG,1728769779
202,muang phon-hong,18.4928,102.4172,296.11,89,7,0.82,LA,1728769780
203,obigarm,38.7173,69.7088,284.14,50,100,2.01,TJ,1728769781
204,papao,-17.75,-149.55,300.97,80,67,7.39,PF,1728769782
205,sokoni,-6.4333,39.55,298.53,83,15,5.77,TZ,1728769783
206,teguise,29.0605,-13.564,295.27,64,20,2.57,ES,1728769785
207,prabumulih,-3.45,104.25,298.06,89,100,1.24,ID,1728769786
208,tsurusaki,33.24,131.6844,289.63,80,71,1.88,JP,1728769787
209,solikamsk,59.6196,56.7729,270.02,75,3,1.56,RU,1728769788
210,port macquarie,-31.4333,152.9167,288.19,94,100,0.89,AU,1728769627
211,mournies,35.4764,24.0092,308.19,83,40,4.12,GR,1728769790
212,bel ombre,-4.6167,55.4167,300.06,83,20,6.17,SC,1728769791
213,grand falls-windsor,48.9332,-55.6649,282.87,77,100,4.13,CA,1728769792
214,caetes,-8.7731,-36.6225,294.62,60,44,6.57,BR,1728769793
215,acarau,-2.8856,-40.12,299.3,74,36,8.0,BR,1728769794
216,phang nga,8.4509,98.5298,296.9,96,58,0.9,TH,1728769795
217,portland,45.5234,-122.6762,298.4,42,0,2.57,US,1728769448
218,yaren,-0.5472,166.916,301.38,73,17,5.76,NR,1728769799
219,vernon,50.2581,-119.2691,294.12,36,7,1.03,CA,1728769800
220,geraldton,-28.7667,114.6,288.38,82,100,3.09,AU,1728769801
221,revda,56.801,59.9303,268.59,80,8,0.19,RU,1728769802
222,svetlyy,54.675,20.1347,281.32,69,90,4.42,RU,1728769803
223,lock haven,41.137,-77.4469,288.89,64,91,0.23,US,1728769804
224,sievi,63.9,24.5,274.66,97,54,2.59,FI,1728769805
225,mantua,45.1667,10.7833,289.25,90,100,0.89,IT,1728769806
226,saint-paul,-21.0096,55.2707,294.56,89,87,1.3,RE,1728769790
227,crucecita,-28.95,-58.9833,296.77,52,50,3.89,AR,1728769809
228,minas de marcona,-15.2119,-75.1103,289.61,61,47,6.75,PE,1728769810
229,rosetta,31.4044,30.4164,296.58,80,93,2.81,EG,1728769811
230,saipan,15.1355,145.701,301.54,83,40,2.06,MP,1728769786
231,choibalsan,48.0667,114.5,282.92,54,100,4.05,MN,1728769813
232,rosalie,15.3667,-61.2667,302.54,77,100,3.71,DM,1728769814
233,malvan,16.0667,73.4667,298.99,91,26,5.02,IN,1728769633
234,buta,2.7858,24.73,294.15,95,96,0.11,CD,1728769816
235,hastings,50.8552,0.5729,283.03,39,38,9.54,GB,1728769817
236,iskateley,67.6803,53.1512,275.29,84,100,8.52,RU,1728769818
237,katsuura,35.1333,140.3,293.93,79,48,5.9,JP,1728769819
238,chonchi,-42.6128,-73.8092,282.06,98,100,0.9,CL,1728769821
239,maslyanino,54.3436,84.2111,268.55,71,100,5.39,RU,1728769822
240,valle de la pascua,9.2155,-66.0073,301.54,70,100,1.78,VE,1728769728
241,ghat,24.9647,10.1728,303.92,16,12,1.57,LY,1728769824
242,maragogi,-9.0122,-35.2225,297.63,82,51,3.85,BR,1728769825
243,mogocha,53.7333,119.7667,271.24,69,100,1.72,RU,1728769826
244,khandyga,62.6667,135.6,269.57,94,100,1.99,RU,1728769827
245,paradip garh,20.3167,86.6167,299.38,83,60,1.63,IN,1728769828
246,fredericton,45.9454,-66.6656,282.62,67,100,7.2,CA,1728769829
247,ceres,37.5949,-120.9577,300.91,45,0,5.14,US,1728769562
248,dudinka,69.4058,86.1778,267.7,93,100,6.96,RU,1728769832
249,arkhangel'sk,64.5401,40.5433,280.21,100,100,4.0,RU,1728769833
250,kolosovka,56.4678,73.611,267.29,84,7,2.77,RU,1728769834
251,digapahandi,19.3667,84.5833,296.99,93,87,0.87,IN,1728769835
252,san juan de miraflores,-12.1629,-76.9635,290.44,78,85,3.8,PE,1728769836
253,sant lluis,39.8526,4.2594,294.37,83,40,4.63,ES,1728769837
254,san julian,21.0167,-102.1667,295.73,25,5,3.59,MX,1728769838
255,callao,-12.0667,-77.15,291.31,77,75,5.14,PE,1728769808
256,north bend,43.4065,-124.2243,295.52,72,40,4.63,US,1728769840
257,tura,25.5198,90.2201,294.21,78,19,1.49,IN,1728769841
258,tolstoy-yurt,43.4444,45.7722,288.33,88,100,6.0,RU,1728769843
259,conde,-7.2597,-34.9075,298.85,73,20,4.63,BR,1728769844
260,mariental,-24.6333,17.9667,300.66,15,54,4.5,NA,1728769845
261,barcelos,41.5388,-8.6151,290.14,83,1,2.53,PT,1728769846
262,souillac,-20.5167,57.5167,295.36,68,40,7.2,MU,1728769847
263,tateyama,34.9833,139.8667,293.24,81,39,5.3,JP,1728769848
264,lerwick,60.1545,-1.1494,279.8,69,100,11.22,GB,1728769849
265,point fortin,10.1833,-61.6833,302.3,74,100,6.93,TT,1728769560
266,dvurechensk,56.5982,61.0953,262.36,78,13,0.87,RU,1728769851
267,greymouth,-42.4667,171.2,282.52,82,99,1.1,NZ,1728769656
268,paramonga,-10.6667,-77.8333,292.28,78,93,3.86,PE,1728769854
269,byron bay,-28.65,153.6167,291.81,65,98,6.37,AU,1728769855
270,lhasa,29.65,91.1,280.17,64,87,0.19,CN,1728769856
271,nha trang,12.25,109.1833,300.15,90,22,2.38,VN,1728769857
272,tolanaro,-25.0319,46.9987,295.19,73,20,10.8,MG,1728769858
273,awjilah,29.1081,21.2869,301.75,35,0,4.27,LY,1728769860
274,sumbawanga,-7.9667,31.6167,292.39,45,69,3.82,TZ,1728769861
275,aljezur,37.3191,-8.8033,291.68,89,0,4.81,PT,1728769862
276,kudahuvadhoo,2.6708,72.8944,301.31,75,100,8.65,MV,1728769863
277,bridgewater,44.3835,-64.5155,284.97,71,75,12.86,CA,1728769865
278,vorkuta,67.5,64.0,272.77,75,100,7.12,RU,1728769866
279,ladyzhyn,48.685,29.2368,281.05,74,56,4.35,UA,1728769867
280,vecpiebalga,57.0599,25.8127,280.32,71,67,1.22,LV,1728769868
281,camacupa,-12.0167,17.4833,291.31,20,30,0.98,AO,1728769869
282,collie,-33.3667,116.15,281.79,96,2,2.01,AU,1728769870
283,palikir - national government center,6.9248,158.1611,298.56,94,100,2.06,FM,1728769871
284,st. john's,47.5649,-52.7093,286.01,94,100,1.79,CA,1728769727
285,katsuren-haebaru,26.3369,127.8719,299.31,86,0,2.06,JP,1728769873
286,flagstaff,35.1981,-111.6513,299.09,19,0,6.69,US,1728769507
287,villiers,-27.0303,28.6006,294.1,42,0,3.78,ZA,1728769875
288,anadyr,64.75,177.4833,262.43,92,23,2.0,RU,1728769877
289,tanguieta,10.6212,1.2665,298.18,87,64,2.09,BJ,1728769878
290,oodweyne,9.4092,45.064,297.38,56,66,5.64,SO,1728769879
291,carbonear,47.7332,-53.2148,286.01,98,99,5.19,CA,1728769880
292,tulagi,-9.0996,160.1476,300.73,76,27,4.54,SB,1728769881
293,liwale,-9.7667,37.9333,294.61,80,0,1.82,TZ,1728769882
294,luderitz,-26.6481,15.1594,291.51,58,18,6.99,NA,1728769884
295,morant bay,17.8815,-76.4093,302.35,80,41,4.31,JM,1728769885
296,badger,64.8,-147.5333,280.36,54,100,8.75,US,1728769887
297,vila franca do campo,37.7167,-25.4333,294.38,99,87,2.79,PT,1728769889
298,qamdo,31.1667,97.2333,274.29,89,100,1.36,CN,1728769890
299,sorsk,54.0033,90.2467,265.59,91,100,2.68,RU,1728769892
300,vadso,70.0744,29.7487,277.24,70,20,9.26,NO,1728769893
301,sidareja,-7.4846,108.7923,297.29,94,55,1.09,ID,1728769894
302,koluszki,51.7387,19.8199,280.31,100,75,5.18,PL,1728769895
303,barakani,-12.1356,44.4317,298.25,80,6,3.69,KM,1728769896
304,kapa'a,22.0752,-159.319,301.33,77,0,4.12,US,1728769897
305,deschutes river woods,43.9915,-121.3584,293.16,36,0,3.6,US,1728769899
306,santa cruz,-17.8,-63.1667,306.18,58,20,6.17,BO,1728769561
307,pisco,-13.7,-76.2167,294.18,68,0,4.12,PE,1728769901
308,biltine,14.5333,20.9167,303.42,37,81,0.7,TD,1728769902
309,as sulayyil,20.4607,45.5779,301.36,19,2,4.48,SA,1728769903
310,valjevo,44.2751,19.8982,284.11,82,34,2.49,RS,1728769904
311,hammerfest,70.6634,23.6821,277.4,60,100,7.72,NO,1728769684
312,klyuchi,52.2667,79.1667,267.41,86,56,3.07,RU,1728769906
313,ryugasaki,35.9,140.1833,291.04,77,12,2.03,JP,1728769908
314,castillos,-34.1667,-53.8333,285.58,69,98,2.03,UY,1728769909
315,nuku'alofa,-21.1333,-175.2,296.34,94,75,4.12,TO,1728769911
316,remire-montjoly,4.9167,-52.2667,302.17,74,0,4.12,GF,1728769912
317,bouar,5.934,15.596,292.14,94,100,0.4,CF,1728769913
318,conception bay south,47.4999,-52.9981,285.88,96,100,7.26,CA,1728769914
319,qaqortoq,60.7167,-46.0333,277.29,47,100,7.89,GL,1728769915
320,roxas,11.5853,122.7511,299.72,84,99,0.67,PH,1728769916
321,glace bay,46.1969,-59.957,284.4,88,75,6.69,CA,1728769918
322,puqi,29.7167,113.8833,293.56,53,95,1.84,CN,1728769919
323,susuman,62.7833,148.1667,266.84,97,100,0.74,RU,1728769921
324,kegen,43.0197,79.2203,276.68,86,100,1.96,KZ,1728769922
325,businga,3.3333,20.8833,293.7,99,100,0.3,CD,1728769923
326,uturoa,-16.7333,-151.4333,298.45,76,36,7.3,PF,1728769924
327,skovorodino,53.9833,123.9167,271.33,49,100,1.56,RU,1728769926
328,vila velha,-20.3297,-40.2925,301.45,71,0,1.34,BR,1728769927
329,darwin,-12.4611,130.8418,300.34,78,20,1.54,AU,1728769919
330,mount isa,-20.7333,139.5,292.02,94,100,3.6,AU,1728769930
331,xiaoshi,41.2971,124.1209,284.96,92,1,1.84,CN,1728769931
332,nacala,-14.5428,40.6728,295.61,92,0,0.74,MZ,1728769932
333,nemuro,43.3236,145.575,287.09,79,23,4.77,JP,1728769933
334,bikenibeu village,1.3673,173.1241,304.13,70,20,5.14,KI,1728769934
335,hotan,37.0997,79.9269,289.8,29,0,1.2,CN,1728769935
336,bure,10.7,37.0667,287.02,95,98,1.1,ET,1728769936
337,flying fish cove,-10.4217,105.6791,298.97,94,100,5.14,CX,1728769928
338,matthew town,20.95,-73.6667,302.5,73,58,4.16,BS,1728769938
339,atafu village,-8.5421,-172.5159,301.3,76,93,7.76,TK,1728769939
340,malanje,-9.5402,16.341,295.02,63,46,2.52,AO,1728769940
341,el granada,37.5027,-122.4694,297.05,74,75,4.63,US,1728769942
342,floro,61.5996,5.0328,282.13,71,100,6.17,NO,1728769943
343,ta`u,-14.2336,-169.5144,299.94,77,25,8.64,AS,1728769944
344,lata,40.1629,-8.3327,289.26,86,0,3.1,PT,1728769945
345,pachino,36.7186,15.0907,293.58,69,6,1.34,IT,1728769946
346,apatity,67.5641,33.4031,274.86,94,91,2.43,RU,1728769947
347,mekhe,15.1097,-16.6218,301.16,74,89,4.33,SN,1728769948
348,sault ste. marie,46.5168,-84.3333,285.31,58,0,2.57,CA,1728769784
349,tan-tan,28.438,-11.1032,295.56,76,100,2.28,MA,1728769952
350,princeville,45.7668,-61.2985,284.51,88,100,10.8,CA,1728769954
351,lazaro cardenas,17.9583,-102.2,301.77,74,33,3.6,MX,1728769955
352,dawei,14.0833,98.2,297.96,90,43,1.82,MM,1728769956
353,queenstown,-31.8976,26.8753,292.74,47,3,0.81,ZA,1728769957
354,upper grand lagoon,30.1633,-85.7408,300.96,39,0,1.79,US,1728769958
355,caconda,-13.7333,15.0667,289.96,49,14,1.21,AO,1728769959
356,olyokminsk,60.3736,120.4264,265.14,94,37,0.86,RU,1728769960
357,toliara,-23.35,43.6667,298.49,44,28,3.78,MG,1728769962
358,port hedland,-20.3167,118.5667,296.18,83,10,3.6,AU,1728769963
359,ilhabela,-23.7781,-45.3581,294.76,90,48,2.46,BR,1728769965
360,valencia,39.3333,-0.8333,290.6,75,90,1.93,ES,1728769966
361,port-vila,-17.7338,168.3219,297.93,78,40,5.14,VU,1728769967
362,malindi,-3.2175,40.1191,297.79,84,93,5.59,KE,1728769968
363,nishifukuma,33.7667,130.4667,288.15,76,68,2.59,JP,1728769969
364,bandundu,-3.3167,17.3667,296.89,79,13,2.04,CD,1728769970
365,tuzha,57.6062,47.936,271.43,66,3,2.99,RU,1728769971
366,koratla,18.8167,78.7167,296.76,92,97,1.65,IN,1728769973
367,horta,38.5333,-28.6333,295.38,96,75,10.29,PT,1728769974
368,ribas do rio pardo,-20.4431,-53.7592,300.83,51,59,3.52,BR,1728769975
369,kiunga,-6.1219,141.2906,296.89,99,100,0.84,PG,1728769976
370,walvis bay,-22.9575,14.5053,289.68,77,8,5.14,NA,1728769977
371,apac,1.9756,32.5386,291.38,92,16,1.51,UG,1728769978
372,alice springs,-23.7,133.8833,291.9,37,37,0.0,AU,1728769979
373,qazvin,36.2797,50.0049,289.56,67,36,3.92,IR,1728769980
374,whangarei,-35.7317,174.3239,290.67,51,90,3.3,NZ,1728769982
375,mbuji-mayi,-6.15,23.6,296.29,64,28,1.76,CD,1728769983
376,trondheim,63.4305,10.3951,280.18,71,100,1.79,NO,1728769984
377,minab,27.1467,57.0801,301.7,56,0,0.59,IR,1728769985
378,harper,4.375,-7.7169,298.1,88,100,4.89,LR,1728769986
379,metlili chaamba,32.2667,3.6333,299.67,41,0,3.09,DZ,1728769987
380,howrah,22.5892,88.3103,302.15,79,40,1.54,IN,1728769988
381,oeiras,-7.0253,-42.1311,304.8,24,54,2.01,BR,1728769989
382,puerto carreno,6.189,-67.4859,308.14,46,20,2.06,CO,1728769990
383,rio grande,-32.035,-52.0986,288.92,76,1,3.22,BR,1728769991
384,manhattan,40.7834,-73.9662,296.38,29,0,5.14,US,1728769760
385,wewak,-3.5534,143.6268,299.96,86,68,2.17,PG,1728769994
386,zalanga,10.6143,10.1765,296.64,77,87,2.56,NG,1728769995
387,kete krachi,7.7939,-0.0498,299.24,82,100,2.51,GH,1728769996
388,cidreira,-30.1811,-50.2056,290.82,87,0,2.96,BR,1728769997
389,bahia de kino,28.8333,-111.9333,306.89,43,0,4.85,MX,1728769998
390,georgetown,5.4112,100.3354,299.11,88,40,1.03,MY,1728769782
391,gizo,-8.103,156.8419,301.37,74,70,2.85,SB,1728770000
392,road town,18.4167,-64.6167,304.17,70,40,2.06,VG,1728770001
393,sanctuary point,-35.1114,150.629,288.36,52,2,1.64,AU,1728770002
394,amga,60.8953,131.9608,263.78,98,100,1.19,RU,1728769975
395,progreso,21.2833,-89.6667,301.46,74,43,4.7,MX,1728770005
396,general conesa,-40.1,-64.4333,294.62,11,1,4.2,AR,1728770006
397,vanino,49.0869,140.2543,276.71,51,0,5.02,RU,1728770007
398,contamana,-7.3333,-75.0167,304.56,50,80,2.51,PE,1728770008
399,at taj,24.2049,23.2857,299.87,24,0,3.96,LY,1728770010
400,tanout,14.9709,8.8879,305.29,15,65,3.7,NE,1728770011
401,fort st. john,56.2499,-120.8529,283.09,50,75,5.14,CA,1728770013
402,manta,-0.95,-80.7333,299.03,73,40,6.17,EC,1728770014
403,sidi bennour,32.6524,-8.4277,293.87,80,100,6.32,MA,1728770015
404,tangalle,6.024,80.7911,297.89,90,100,4.14,LK,1728770016
405,opopeo,19.4,-101.6,291.4,52,9,0.9,MX,1728770017
406,mwene-ditu,-7.0,23.45,291.75,88,43,1.73,CD,1728770018
407,tharangambadi,11.0319,79.8528,298.96,88,97,2.34,IN,1728770019
408,sandnessjoen,66.0217,12.6316,278.12,65,92,7.46,NO,1728770020
409,coxen hole,16.3244,-86.5366,299.75,83,75,2.57,HN,1728769800
410,kachug,53.9606,105.8817,272.17,98,100,1.72,RU,1728770022
411,siracusa,37.0881,15.2792,294.2,61,6,1.46,IT,1728769765
412,pokrovsk,48.282,37.1758,285.82,55,100,7.21,UA,1728770025
413,sao joao da barra,-21.6403,-41.0511,298.2,92,100,5.71,BR,1728770026
414,kismayo,-0.3582,42.5454,298.29,84,41,6.15,SO,1728770027
415,merizo village,13.2658,144.6691,300.58,91,63,2.4,GU,1728770028
416,verkhnevilyuysk,63.4453,120.3167,259.34,99,88,0.6,RU,1728770029
417,al mawsil al jadidah,36.3346,43.0978,300.43,29,47,3.05,IQ,1728770030
418,le vauclin,14.5452,-60.8388,303.18,70,20,3.6,MQ,1728770031
419,tsiombe,-25.3,45.4833,292.63,84,9,3.54,MG,1728770032
420,prince rupert,54.3161,-130.3201,287.2,70,100,21.61,CA,1728770033
421,korhogo,9.45,-5.6333,295.09,94,100,0.3,CI,1728770034
422,inhambane,-23.865,35.3833,294.61,89,0,2.29,MZ,1728770035
423,pimentel,-6.8367,-79.9342,294.31,68,0,7.72,PE,1728770037
424,santiago de cao,-7.9589,-79.2392,290.22,88,75,5.14,PE,1728770038
425,fortuna,40.5982,-124.1573,293.66,91,100,0.0,US,1728770039
426,lethem,3.3803,-59.7968,302.64,58,100,0.55,GY,1728770040
427,vuktyl,63.8567,57.3094,273.06,58,100,5.97,RU,1728770041
428,kurud,20.8322,81.7214,295.84,89,14,1.41,IN,1728770042
429,kuta,-8.7233,115.1723,300.12,94,20,2.57,ID,1728770043
430,christchurch,-43.5333,172.6333,283.68,78,75,3.6,NZ,1728769927
431,akureyri,65.6835,-18.0878,265.11,93,0,2.57,IS,1728770045
432,vorgashor,67.5833,63.95,272.56,76,100,7.26,RU,1728770046
433,santa ana,33.7456,-117.8678,301.99,55,20,4.12,US,1728770048
434,ghatampur,26.1667,80.1667,297.17,71,83,2.28,IN,1728770049
435,wad medani,14.4012,33.5199,304.02,46,43,3.91,SD,1728770050
436,calingasta,-31.3308,-69.4078,297.09,7,97,5.63,AR,1728770051
437,dzuunharaa,48.8523,106.4579,280.43,52,8,2.27,MN,1728770052
438,karamay,45.6004,84.8661,285.66,61,100,9.46,CN,1728770053
439,salekhard,66.53,66.6019,273.94,72,100,5.66,RU,1728770054
440,richards bay,-28.783,32.0377,292.53,92,6,1.83,ZA,1728770055
441,palmas,-10.2128,-48.3603,305.08,45,40,4.63,BR,1728769785
442,nagqu,31.5,92.0,271.31,29,61,1.34,CN,1728770057
443,saint-pierre,-21.3393,55.4781,293.97,78,20,7.72,RE,1728770059
444,chinde,26.8212,87.7095,294.42,79,53,1.75,NP,1728770060
445,nar'yan-mar,67.6713,53.087,275.3,85,100,8.49,RU,1728770061
446,al jawf,29.5,38.75,296.34,29,0,1.81,SA,1728770062
447,katabu,-4.9333,122.5167,297.41,93,70,1.36,ID,1728770063
448,traverse city,44.7631,-85.6206,284.83,61,99,1.34,US,1728770064
449,yangcun,39.3639,117.0603,288.44,94,100,3.12,CN,1728770065
450,nelson,-41.2833,173.2833,286.69,57,64,2.43,NZ,1728770066
451,moussoro,13.6408,16.4901,306.19,16,89,1.6,TD,1728770067
452,launceston,-41.45,147.1667,282.95,81,100,5.14,AU,1728770068
453,ust'-ordynskiy,52.805,104.7508,272.48,85,100,6.25,RU,1728770069
454,pleasanton,37.6624,-121.8747,299.13,56,20,4.63,US,1728770071
455,enewetak,11.3474,162.3373,301.84,76,100,5.23,MH,1728770072
456,durg,21.1833,81.2833,297.21,84,59,0.38,IN,1728770073
457,hami,42.8,93.45,290.29,33,99,8.22,CN,1728770074
458,kalmunai,7.4167,81.8167,297.45,90,100,3.77,LK,1728770075
459,severo-yeniseyskiy,60.3725,93.0408,259.5,99,72,1.46,RU,1728770076
460,nguigmi,14.2495,13.1092,305.43,18,92,3.61,NE,1728770077
461,kilifi,-3.6305,39.8499,297.06,87,74,4.36,KE,1728770078
462,rikaze,29.25,88.8833,279.95,57,0,1.54,CN,1728770079
463,sumy,50.9216,34.8003,288.06,57,100,5.47,UA,1728770023
464,belmonte,-15.8631,-38.8828,298.3,75,81,4.94,BR,1728770081
465,beau vallon,-20.4189,57.6953,295.28,68,40,7.2,MU,1728770014
466,opuwo,-18.0607,13.84,297.82,14,2,2.86,NA,1728770084
467,puerto baquerizo moreno,-0.9,-89.6,296.7,88,40,6.69,EC,1728770085
468,anloga,5.7947,0.8973,299.59,87,82,7.16,GH,1728770086
469,mossel bay,-34.1831,22.146,290.11,89,0,1.0,ZA,1728769547
470,hiratacho,35.4333,132.8167,287.13,94,46,5.14,JP,1728770088
471,manadhoo,5.7667,73.3833,299.28,85,97,6.26,MV,1728770089
472,durban,-29.8579,31.0292,292.66,89,10,2.87,ZA,1728769499
473,nadi,-17.8,177.4167,301.15,65,75,2.06,FJ,1728770091
474,lichinga,-13.3128,35.2406,293.2,52,0,3.13,MZ,1728770092
475,kavaratti,10.5669,72.642,299.31,84,94,4.1,IN,1728770093
476,pedernales,18.0384,-71.744,303.24,68,37,3.13,DO,1728770095
477,carnarvon,-24.8667,113.6333,291.09,80,0,6.13,AU,1728770030
478,filingue,14.3521,3.3168,306.78,22,95,1.1,NE,1728770097
479,leua,48.2156,18.6071,282.47,80,100,2.81,SK,1728770098
480,bafoulabe,13.8065,-10.8321,299.68,82,100,2.28,ML,1728770099
481,juneau,58.3019,-134.4197,284.15,87,100,11.83,US,1728770002
482,mtambile,-5.3833,39.7,298.3,82,3,5.54,TZ,1728770101
483,novodvinsk,64.4165,40.8122,280.01,95,100,3.05,RU,1728770102
484,santanyi,39.3546,3.1291,293.93,85,59,1.5,ES,1728770103
485,carutapera,-1.195,-46.02,299.37,77,44,5.74,BR,1728770104
486,buala,-8.145,159.5921,301.65,74,19,3.76,SB,1728770106
487,martapura,-3.4167,114.85,299.2,100,82,0.51,ID,1728770107
488,saint-mandrier-sur-mer,43.078,5.929,290.42,91,100,2.06,FR,1728770108
489,skive,56.5667,9.0333,283.24,84,99,2.24,DK,1728770109
490,ondjiva,-17.0667,15.7333,299.17,12,0,2.57,AO,1728770110
491,eldorado at santa fe,35.5264,-105.9347,300.99,15,13,1.79,US,1728770111
492,luwuk,-0.9516,122.7875,296.24,87,87,1.64,ID,1728770112
493,bodinayakkanur,10.0167,77.35,296.55,91,100,1.09,IN,1728770113
494,gaalkacyo,6.7697,47.4308,299.44,69,80,7.9,SO,1728770114
495,ballina,-28.8667,153.5667,291.98,60,98,7.18,AU,1728770115
496,boa vista,2.8197,-60.6733,306.14,49,20,3.6,BR,1728770117
497,araria,26.15,87.5167,295.41,68,76,0.52,IN,1728770118
498,matoury,4.8483,-52.3317,302.13,74,0,4.12,GF,1728770119
499,birjand,32.8663,59.2211,291.41,16,0,4.12,IR,1728770120
500,cadale,2.7603,46.3222,298.76,87,99,7.56,SO,1728770121
501,kastellaun,50.0667,7.45,284.47,100,75,5.14,DE,1728770050
502,cachoeira,-12.6183,-38.9558,296.85,69,20,4.29,BR,1728770123
503,dunedin,-45.8742,170.5036,281.37,88,72,1.79,NZ,1728770051
504,seven pagodas,12.6264,80.1722,300.24,82,55,3.02,IN,1728770126
505,lorengau,-2.0226,147.2712,302.45,70,60,3.15,PG,1728770127
506,holualoa,19.6228,-155.9522,299.06,89,0,4.63,US,1728770128
507,bondo,3.8146,23.6866,294.39,88,94,0.54,CD,1728770129
508,nizhnesortymskiy,62.4397,71.7603,271.53,71,100,8.04,RU,1728770130
509,tuban,-6.8976,112.0649,299.02,81,11,2.61,ID,1728770131
510,kourou,5.1552,-52.6478,300.61,77,90,5.35,GF,1728770132
511,warman,52.3168,-106.5679,284.1,53,20,6.69,CA,1728770133
512,sechura,-5.5569,-80.8222,296.36,63,74,8.34,PE,1728770134
513,nadym,65.5333,72.5167,272.89,68,100,8.46,RU,1728770136
514,cuyo,10.8525,121.0086,302.02,74,100,4.12,PH,1728770038
515,tabou,4.423,-7.3528,297.85,89,96,4.91,CI,1728770138
516,mitsamiouli,-11.3847,43.2844,298.5,79,39,1.83,KM,1728770139
517,mossendjo,-2.9506,12.7261,294.79,99,100,1.94,CG,1728770140
518,mapimi,25.8167,-103.85,298.93,22,0,3.1,MX,1728770141
519,el bauga,18.262,33.9081,306.2,25,77,4.96,SD,1728770142
520,new norfolk,-42.7826,147.0587,285.33,53,96,1.85,AU,1728770125
521,fale old settlement,-9.3852,-171.2468,300.99,78,89,7.09,TK,1728770144
522,barah,13.7,30.3667,304.09,38,19,4.29,SD,1728770145
523,acheng,45.5454,126.977,279.34,55,10,2.63,CN,1728770147
524,santyoku,37.4406,129.1708,288.69,73,1,2.26,KR,1728770148
525,aldama,22.9167,-98.0667,301.16,51,34,4.85,MX,1728770149
526,diapaga,12.0708,1.7889,301.29,66,53,2.64,BF,1728770150
527,kisangani,0.5167,25.2,294.19,89,98,0.7,CD,1728770151
528,maputo,-25.9653,32.5892,296.05,88,75,2.68,MZ,1728770152
529,homer,59.6425,-151.5483,279.28,92,100,3.82,US,1728770153
530,margate,51.3813,1.3862,283.54,75,18,0.89,GB,1728770154
531,general villegas,-35.0328,-63.0125,293.97,51,98,6.7,AR,1728770155
532,kone,-21.0595,164.8658,299.31,46,74,0.64,NC,1728770156
533,xai-xai,-25.0519,33.6442,293.5,89,0,2.83,MZ,1728770159
534,wuwei,37.9281,102.6414,285.5,41,0,0.81,CN,1728770160
535,pyay,18.8167,95.2167,297.0,93,54,0.46,MM,1728770161
536,east ballina,-28.8667,153.5833,291.98,60,98,7.18,AU,1728770162
537,chibougamau,49.9168,-74.3659,275.94,93,100,7.2,CA,1728770163
538,pavlovka,52.6897,47.1405,272.19,65,0,2.91,RU,1728770164
539,banff,51.1762,-115.5698,287.36,24,96,2.57,CA,1728770165
540,zelenogorsk,56.1147,94.5861,266.78,81,15,2.05,RU,1728770166
541,dedovichi,57.5517,29.9502,278.85,80,100,1.28,RU,1728770167
542,lusambo,-4.9667,23.45,295.73,68,14,0.74,CD,1728770168
543,aktobe,50.2797,57.2072,270.2,68,100,7.0,KZ,1728770170
544,coquimbo,-29.9533,-71.3436,288.0,77,75,4.63,CL,1728769919
545,sheridan,44.8333,-106.9173,297.05,30,0,2.06,US,1728770173
546,san luis de la loma,17.2706,-100.8939,300.76,79,100,2.48,MX,1728770174
547,bamboo flat,11.7,92.7167,300.2,89,40,1.03,IN,1728770175
548,mezhdurechenskiy,59.6,65.9333,269.71,73,76,2.18,RU,1728770176
549,mirny,62.5353,113.9611,260.3,98,78,1.36,RU,1728770177
550,mogadishu,2.0371,45.3438,298.81,86,90,7.17,SO,1728770178
551,saint john,45.2727,-66.0677,283.72,62,75,8.75,CA,1728769954
552,acara,-1.9608,-48.1967,301.76,64,100,2.62,BR,1728770181
553,port isabel,26.0734,-97.2086,303.19,64,0,4.63,US,1728769902
554,vaskelovo,60.3693,30.3534,278.35,86,6,1.87,RU,1728770183
555,saudarkrokur,65.7461,-19.6394,270.37,71,8,4.47,IS,1728770184
556,robertsport,6.7533,-11.3686,299.46,82,100,4.02,LR,1728770185
557,novyy urengoy,66.0833,76.6333,270.94,96,100,8.09,RU,1728770186
558,san patricio,28.017,-97.5169,305.12,44,0,6.23,US,1728770187
559,olavarria,-36.8927,-60.3225,291.07,21,88,1.78,AR,1728769926
560,san mariano,7.5,126.0,296.21,93,100,0.86,PH,1728770189
561,sao francisco de assis,-29.5503,-55.1311,293.48,73,14,4.22,BR,1728770191
562,santo tomas la union,14.6333,-91.3833,299.44,86,88,0.96,GT,1728770192
563,charters towers,-20.1,146.2667,295.67,52,89,5.7,AU,1728770193
564,muli,2.9167,73.5667,301.01,79,100,8.3,MV,1728770194
565,el calafate,-50.3408,-72.2768,281.91,63,100,3.66,AR,1728770195
566,howard springs,-12.497,131.047,300.3,83,5,1.87,AU,1728770196
567,korla,41.7597,86.1469,289.96,35,2,3.94,CN,1728770197
568,taoudenni,22.6783,-3.9836,308.69,14,0,4.47,ML,1728770198
569,nenjiang,49.1833,125.2167,275.73,51,23,2.84,CN,1728770199
570,mayya,61.7333,130.2811,263.28,96,91,1.71,RU,1728770200
571,umuahia,5.5263,7.4896,294.48,98,100,0.88,NG,1728770202
572,zhicheng,30.2956,111.5047,289.62,91,100,1.24,CN,1728770203
573,los frentones,-26.4077,-61.4137,300.23,39,1,2.46,AR,1728770204
574,big bend,-26.8167,31.9333,293.61,89,34,0.89,SZ,1728770206
575,qarah,34.1527,36.7415,290.35,59,0,0.42,SY,1728770207
576,tanjungagung,-3.9333,103.8,296.43,95,99,1.21,ID,1728770208
577,mlangali,-9.7833,34.5167,287.7,77,4,2.6,TZ,1728770209
578,talara,-4.5772,-81.2719,295.57,68,0,9.26,PE,1728770210
579,ulaangom,49.9811,92.0667,280.43,49,100,1.64,MN,1728770212
580,saki,8.6667,3.3833,295.1,96,99,1.72,NG,1728770213
581,bethanie,-26.4833,17.15,300.19,12,1,3.94,NA,1728770214
582,sai buri,6.7013,101.6168,299.8,91,100,1.27,TH,1728770215
